{
"type": "FeatureCollection",
"name": "district_centroids",
"crs": { "type": "name", "properties": { "name": "urn:ogc:def:crs:OGC:1.3:CRS84" } },
"features": [
{ "type": "Feature", "properties": { "DISTNAME": "Nakanai District", "Area": 4895934029.1190004 }, "geometry": { "type": "Point", "coordinates": [ 150.72301207443212, -5.538502569052937 ] } },
{ "type": "Feature", "properties": { "DISTNAME": "Laigap District", "Area": 1256345424.8829999 }, "geometry": { "type": "Point", "coordinates": [ 143.481843489256761, -5.54746964518718 ] } },
{ "type": "Feature", "properties": { "DISTNAME": "Hulia District", "Area": 2157013038.0879998 }, "geometry": { "type": "Point", "coordinates": [ 142.920375328647793, -6.092352807277864 ] } },
{ "type": "Feature", "properties": { "DISTNAME": "Wau-Waria District", "Area": 5517435708.7489996 }, "geometry": { "type": "Point", "coordinates": [ 146.952241576539194, -7.65879872023576 ] } },
{ "type": "Feature", "properties": { "DISTNAME": "Popondentta District", "Area": 2045894292.2149999 }, "geometry": { "type": "Point", "coordinates": [ 148.310218662034004, -8.719966305525842 ] } },
{ "type": "Feature", "properties": { "DISTNAME": "Delta Fly District", "Area": 17570524417.099998 }, "geometry": { "type": "Point", "coordinates": [ 142.949455148461396, -7.76333138074548 ] } },
{ "type": "Feature", "properties": { "DISTNAME": "Koroba/Kopiago District", "Area": 5467405871.2650003 }, "geometry": { "type": "Point", "coordinates": [ 142.514370627222206, -5.435236919836061 ] } },
{ "type": "Feature", "properties": { "DISTNAME": "Tari/Pori District", "Area": 1060523332.11 }, "geometry": { "type": "Point", "coordinates": [ 142.963454910752006, -5.798205309945959 ] } },
{ "type": "Feature", "properties": { "DISTNAME": "Komo/Magarima District", "Area": 1079270275.954 }, "geometry": { "type": "Point", "coordinates": [ 143.261003255848721, -5.965963119131231 ] } },
{ "type": "Feature", "properties": { "DISTNAME": "Nipa/Kutubu District", "Area": 7666760577.6999998 }, "geometry": { "type": "Point", "coordinates": [ 143.158470640884019, -6.513561177778311 ] } },
{ "type": "Feature", "properties": { "DISTNAME": "Mendi/Munihu District", "Area": 1130995869.0739999 }, "geometry": { "type": "Point", "coordinates": [ 143.641024462817882, -6.031184000989628 ] } },
{ "type": "Feature", "properties": { "DISTNAME": "Imbonggu District", "Area": 1275729335.8239999 }, "geometry": { "type": "Point", "coordinates": [ 143.916891910502784, -6.16075014823234 ] } },
{ "type": "Feature", "properties": { "DISTNAME": "Ialibu/Pangia District", "Area": 2135458330.8540001 }, "geometry": { "type": "Point", "coordinates": [ 144.224380146950267, -6.383577686240764 ] } },
{ "type": "Feature", "properties": { "DISTNAME": "Kagua/Erave District", "Area": 3609078845.4569998 }, "geometry": { "type": "Point", "coordinates": [ 144.003937736549062, -6.599644569975304 ] } },
{ "type": "Feature", "properties": { "DISTNAME": "North Fly District", "Area": 15022650688.426001 }, "geometry": { "type": "Point", "coordinates": [ 141.437104999477839, -5.776710641761849 ] } },
{ "type": "Feature", "properties": { "DISTNAME": "Pogera-Paiela District", "Area": 3556284952.9949999 }, "geometry": { "type": "Point", "coordinates": [ 143.033866295105042, -5.332426366993417 ] } },
{ "type": "Feature", "properties": { "DISTNAME": "Kandep District", "Area": 2018010384.154 }, "geometry": { "type": "Point", "coordinates": [ 143.405676583945649, -5.743137839767253 ] } },
{ "type": "Feature", "properties": { "DISTNAME": "Wapenamanda District", "Area": 1014740812.132 }, "geometry": { "type": "Point", "coordinates": [ 143.874087216510816, -5.670269363886295 ] } },
{ "type": "Feature", "properties": { "DISTNAME": "Wabag District", "Area": 947353355.995 }, "geometry": { "type": "Point", "coordinates": [ 143.577120266893218, -5.329181757005491 ] } },
{ "type": "Feature", "properties": { "DISTNAME": "Kompiam District", "Area": 2928634698.1030002 }, "geometry": { "type": "Point", "coordinates": [ 143.882547593779833, -5.260422820698476 ] } },
{ "type": "Feature", "properties": { "DISTNAME": "Dei District", "Area": 763529399.43099999 }, "geometry": { "type": "Point", "coordinates": [ 144.352306736524724, -5.645686622596936 ] } },
{ "type": "Feature", "properties": { "DISTNAME": "North Waghi District", "Area": 470323243.26099998 }, "geometry": { "type": "Point", "coordinates": [ 144.669893137209755, -5.793815710380412 ] } },
{ "type": "Feature", "properties": { "DISTNAME": "Tambul/Nebilyer District", "Area": 1792318398.931 }, "geometry": { "type": "Point", "coordinates": [ 144.150640980348982, -5.990014533561204 ] } },
{ "type": "Feature", "properties": { "DISTNAME": "Mul/Baiyer District", "Area": 1378554624.869 }, "geometry": { "type": "Point", "coordinates": [ 144.166251991433057, -5.531250548126594 ] } },
{ "type": "Feature", "properties": { "DISTNAME": "Mt Hagen District", "Area": 311627772.66600001 }, "geometry": { "type": "Point", "coordinates": [ 144.238238608718575, -5.838763224317548 ] } },
{ "type": "Feature", "properties": { "DISTNAME": "Anglimp/South Waghi District", "Area": 2221485686.9489999 }, "geometry": { "type": "Point", "coordinates": [ 144.546474996807859, -6.04058775421963 ] } },
{ "type": "Feature", "properties": { "DISTNAME": "Jimi District", "Area": 2172303520.7729998 }, "geometry": { "type": "Point", "coordinates": [ 144.62655869705992, -5.548788385818742 ] } },
{ "type": "Feature", "properties": { "DISTNAME": "Kerowagi District", "Area": 608005254.08500004 }, "geometry": { "type": "Point", "coordinates": [ 144.870946201402973, -5.924726805718158 ] } },
{ "type": "Feature", "properties": { "DISTNAME": "Gumine District", "Area": 698777726.31099999 }, "geometry": { "type": "Point", "coordinates": [ 144.834273865236099, -6.197718079534551 ] } },
{ "type": "Feature", "properties": { "DISTNAME": "Karimui/Nomane District", "Area": 3492493456.4770002 }, "geometry": { "type": "Point", "coordinates": [ 144.88773617007908, -6.546800604480307 ] } },
{ "type": "Feature", "properties": { "DISTNAME": "Chuave District", "Area": 568717679.625 }, "geometry": { "type": "Point", "coordinates": [ 145.153272822599774, -6.206212916855621 ] } },
{ "type": "Feature", "properties": { "DISTNAME": "Sina Sina Yonggomugl District", "Area": 323751377.41299999 }, "geometry": { "type": "Point", "coordinates": [ 145.019440504065926, -6.088290705036891 ] } },
{ "type": "Feature", "properties": { "DISTNAME": "Kundiawa/Gembogl District", "Area": 438475849.89499998 }, "geometry": { "type": "Point", "coordinates": [ 145.03811170686842, -5.917726953429046 ] } },
{ "type": "Feature", "properties": { "DISTNAME": "Okapa District", "Area": 2134041040.9319999 }, "geometry": { "type": "Point", "coordinates": [ 145.520904792325183, -6.626283459841474 ] } },
{ "type": "Feature", "properties": { "DISTNAME": "Henganofi District", "Area": 1040886618.91 }, "geometry": { "type": "Point", "coordinates": [ 145.656797215595532, -6.19826064569154 ] } },
{ "type": "Feature", "properties": { "DISTNAME": "Unggai/Benna District", "Area": 904040290.09899998 }, "geometry": { "type": "Point", "coordinates": [ 145.474080858382905, -6.110923125676986 ] } },
{ "type": "Feature", "properties": { "DISTNAME": "Daulo District", "Area": 609613442.24699998 }, "geometry": { "type": "Point", "coordinates": [ 145.239316197618876, -5.978798052177459 ] } },
{ "type": "Feature", "properties": { "DISTNAME": "Lufa District", "Area": 1363176568.487 }, "geometry": { "type": "Point", "coordinates": [ 145.258107238624746, -6.44093037935825 ] } },
{ "type": "Feature", "properties": { "DISTNAME": "Goroka District", "Area": 338580812.22500002 }, "geometry": { "type": "Point", "coordinates": [ 145.38447549990957, -6.035362754161757 ] } },
{ "type": "Feature", "properties": { "DISTNAME": "Kainanatu District", "Area": 1938416120.8340001 }, "geometry": { "type": "Point", "coordinates": [ 145.905660256002335, -6.30501325640703 ] } },
{ "type": "Feature", "properties": { "DISTNAME": "Obura/Wonenara District", "Area": 2820200657.5380001 }, "geometry": { "type": "Point", "coordinates": [ 145.778101470741376, -6.84211244530016 ] } },
{ "type": "Feature", "properties": { "DISTNAME": "Middle Ramu District", "Area": 7781726216.6040001 }, "geometry": { "type": "Point", "coordinates": [ 144.710788479588075, -4.922588764220273 ] } },
{ "type": "Feature", "properties": { "DISTNAME": "Usino Bundi District", "Area": 7108714721.8999996 }, "geometry": { "type": "Point", "coordinates": [ 145.207219333565746, -5.512337204403603 ] } },
{ "type": "Feature", "properties": { "DISTNAME": "South Fly District", "Area": 31544411950.487999 }, "geometry": { "type": "Point", "coordinates": [ 142.036178705211029, -8.595495774608015 ] } },
{ "type": "Feature", "properties": { "DISTNAME": "Middle Fly District", "Area": 33990436544.415001 }, "geometry": { "type": "Point", "coordinates": [ 141.917046741237925, -6.901940708301573 ] } },
{ "type": "Feature", "properties": { "DISTNAME": "Kikori District", "Area": 27310981785.778 }, "geometry": { "type": "Point", "coordinates": [ 144.470217506858006, -7.269039843458723 ] } },
{ "type": "Feature", "properties": { "DISTNAME": "Kairuku - Hiri District", "Area": 4555555469.8990002 }, "geometry": { "type": "Point", "coordinates": [ 146.725787435157628, -8.68593199581117 ] } },
{ "type": "Feature", "properties": { "DISTNAME": "Goilala District", "Area": 7827682336.6610003 }, "geometry": { "type": "Point", "coordinates": [ 147.009941634725323, -8.365294834543958 ] } },
{ "type": "Feature", "properties": { "DISTNAME": "Rigo District", "Area": 5014465149.4709997 }, "geometry": { "type": "Point", "coordinates": [ 147.837996116975972, -9.701272402923937 ] } },
{ "type": "Feature", "properties": { "DISTNAME": "Abau District", "Area": 7066321909.8360004 }, "geometry": { "type": "Point", "coordinates": [ 148.88109456198444, -10.048570364489814 ] } },
{ "type": "Feature", "properties": { "DISTNAME": "Samarai-Murua District", "Area": 2901130018.3730001 }, "geometry": { "type": "Point", "coordinates": [ 152.828088383565188, -10.496898826072341 ] } },
{ "type": "Feature", "properties": { "DISTNAME": "Esa'ala District", "Area": 2303041808.9809999 }, "geometry": { "type": "Point", "coordinates": [ 150.824579393059167, -9.706226119558105 ] } },
{ "type": "Feature", "properties": { "DISTNAME": "Kiriwina-Goodenough District", "Area": 1087933657.859 }, "geometry": { "type": "Point", "coordinates": [ 150.534701630477286, -9.073030235215734 ] } },
{ "type": "Feature", "properties": { "DISTNAME": "Ijivitari District", "Area": 10742297857.507999 }, "geometry": { "type": "Point", "coordinates": [ 148.672006869486353, -9.425970052184883 ] } },
{ "type": "Feature", "properties": { "DISTNAME": "Sohe District", "Area": 9823645257.6749992 }, "geometry": { "type": "Point", "coordinates": [ 147.774227029670016, -8.535733801265851 ] } },
{ "type": "Feature", "properties": { "DISTNAME": "Rai Coast District", "Area": 5695486377.7869997 }, "geometry": { "type": "Point", "coordinates": [ 146.179857711554661, -5.703616253697176 ] } },
{ "type": "Feature", "properties": { "DISTNAME": "Madang District", "Area": 2696125791.152 }, "geometry": { "type": "Point", "coordinates": [ 145.522891316571446, -5.148260192910682 ] } },
{ "type": "Feature", "properties": { "DISTNAME": "Sumkar District", "Area": 1936454673.1689999 }, "geometry": { "type": "Point", "coordinates": [ 145.651206640234932, -4.756476176762314 ] } },
{ "type": "Feature", "properties": { "DISTNAME": "Bogia District", "Area": 3721841485.027 }, "geometry": { "type": "Point", "coordinates": [ 144.92186230187562, -4.385082610915772 ] } },
{ "type": "Feature", "properties": { "DISTNAME": "Angoram District", "Area": 19853404120.865002 }, "geometry": { "type": "Point", "coordinates": [ 143.764010341003512, -4.503804597565411 ] } },
{ "type": "Feature", "properties": { "DISTNAME": "Wewak District", "Area": 2310655859.8860002 }, "geometry": { "type": "Point", "coordinates": [ 143.570891057208911, -3.604307159058447 ] } },
{ "type": "Feature", "properties": { "DISTNAME": "Aitape/Lumi District", "Area": 5828920661.6000004 }, "geometry": { "type": "Point", "coordinates": [ 142.1627134518547, -3.324712740152111 ] } },
{ "type": "Feature", "properties": { "DISTNAME": "Ambunti/Drekikier District", "Area": 14839330519.771999 }, "geometry": { "type": "Point", "coordinates": [ 142.309775934536617, -4.346897949795308 ] } },
{ "type": "Feature", "properties": { "DISTNAME": "Maprik District", "Area": 843106166.699 }, "geometry": { "type": "Point", "coordinates": [ 143.027044433638281, -3.644330171392056 ] } },
{ "type": "Feature", "properties": { "DISTNAME": "Wosera Gawi District", "Area": 3129333550.7090001 }, "geometry": { "type": "Point", "coordinates": [ 143.062924078865393, -4.05782400663656 ] } },
{ "type": "Feature", "properties": { "DISTNAME": "Yangoru Saussia District", "Area": 2586774425.3369999 }, "geometry": { "type": "Point", "coordinates": [ 143.456777924174077, -3.811611932974122 ] } },
{ "type": "Feature", "properties": { "DISTNAME": "Telefomin District", "Area": 13807702096.051001 }, "geometry": { "type": "Point", "coordinates": [ 141.699772703126541, -4.67505018658562 ] } },
{ "type": "Feature", "properties": { "DISTNAME": "Nuku District", "Area": 3519867029.9629998 }, "geometry": { "type": "Point", "coordinates": [ 142.382931450897615, -3.696067664216655 ] } },
{ "type": "Feature", "properties": { "DISTNAME": "Kandrian/Gloucester District", "Area": 13196992147.792 }, "geometry": { "type": "Point", "coordinates": [ 149.488213919491244, -5.876751686286419 ] } },
{ "type": "Feature", "properties": { "DISTNAME": "Pomio District", "Area": 11416809431.478001 }, "geometry": { "type": "Point", "coordinates": [ 151.569617261137068, -5.303621241446411 ] } },
{ "type": "Feature", "properties": { "DISTNAME": "Gazelle District", "Area": 3367565076.5100002 }, "geometry": { "type": "Point", "coordinates": [ 151.824291579699405, -4.476614644414853 ] } },
{ "type": "Feature", "properties": { "DISTNAME": "Rabaul District", "Area": 103270746.84299999 }, "geometry": { "type": "Point", "coordinates": [ 152.15721616289585, -4.194664452845827 ] } },
{ "type": "Feature", "properties": { "DISTNAME": "Kokopo District", "Area": 403088243.25599998 }, "geometry": { "type": "Point", "coordinates": [ 152.306920514195298, -4.356800355670863 ] } },
{ "type": "Feature", "properties": { "DISTNAME": "Namatanai District", "Area": 6590589026.9239998 }, "geometry": { "type": "Point", "coordinates": [ 152.552425864565834, -3.901882148886179 ] } },
{ "type": "Feature", "properties": { "DISTNAME": "North Bougainville District", "Area": 2793280061.4159999 }, "geometry": { "type": "Point", "coordinates": [ 154.841233327770027, -5.613493305777324 ] } },
{ "type": "Feature", "properties": { "DISTNAME": "Central Bougainville District", "Area": 3004706987.1929998 }, "geometry": { "type": "Point", "coordinates": [ 155.386475450657656, -6.160792512850715 ] } },
{ "type": "Feature", "properties": { "DISTNAME": "South Bougainville District", "Area": 3602123227.8340001 }, "geometry": { "type": "Point", "coordinates": [ 155.485635991366536, -6.544102652530991 ] } },
{ "type": "Feature", "properties": { "DISTNAME": "Manus District", "Area": 2139544994.5810001 }, "geometry": { "type": "Point", "coordinates": [ 146.915269537323667, -2.088637050089309 ] } },
{ "type": "Feature", "properties": { "DISTNAME": "Tawae/Siassi District", "Area": 2657330568.7319999 }, "geometry": { "type": "Point", "coordinates": [ 147.545340046666468, -5.908496353024701 ] } },
{ "type": "Feature", "properties": { "DISTNAME": "Finschafen District", "Area": 2416676803.0050001 }, "geometry": { "type": "Point", "coordinates": [ 147.538987415906377, -6.513280089996299 ] } },
{ "type": "Feature", "properties": { "DISTNAME": "Nawae District", "Area": 2501568998.8039999 }, "geometry": { "type": "Point", "coordinates": [ 146.985008317500586, -6.495162326308159 ] } },
{ "type": "Feature", "properties": { "DISTNAME": "Huon District", "Area": 5634258821.6000004 }, "geometry": { "type": "Point", "coordinates": [ 146.930260782233262, -7.111939509916671 ] } },
{ "type": "Feature", "properties": { "DISTNAME": "Markham District", "Area": 4488076702.5360003 }, "geometry": { "type": "Point", "coordinates": [ 146.270620092818262, -6.359178561963369 ] } },
{ "type": "Feature", "properties": { "DISTNAME": "Kabwum District", "Area": 3521471377.717 }, "geometry": { "type": "Point", "coordinates": [ 147.028965896345738, -6.16150980325445 ] } },
{ "type": "Feature", "properties": { "DISTNAME": "Lae District", "Area": 130892624.02599999 }, "geometry": { "type": "Point", "coordinates": [ 147.012268997102126, -6.686809118769693 ] } },
{ "type": "Feature", "properties": { "DISTNAME": "Menyamya District", "Area": 3673690430.848 }, "geometry": { "type": "Point", "coordinates": [ 146.177016780625706, -7.264028399019239 ] } },
{ "type": "Feature", "properties": { "DISTNAME": "Bulolo District", "Area": 3244893726.6620002 }, "geometry": { "type": "Point", "coordinates": [ 146.587400893051495, -7.058178740239753 ] } },
{ "type": "Feature", "properties": { "DISTNAME": "Kavieng District", "Area": 2987246930.0840001 }, "geometry": { "type": "Point", "coordinates": [ 150.535385047867464, -2.528073432671422 ] } },
{ "type": "Feature", "properties": { "DISTNAME": "Vanimo/Green River District", "Area": 12728439665.318001 }, "geometry": { "type": "Point", "coordinates": [ 141.346464578864214, -3.431582401205967 ] } },
{ "type": "Feature", "properties": { "DISTNAME": "Kerema District", "Area": 7194119211.6660004 }, "geometry": { "type": "Point", "coordinates": [ 146.068559502057923, -7.773803932775003 ] } },
{ "type": "Feature", "properties": { "DISTNAME": "Alotau District", "Area": 7931284708.3780003 }, "geometry": { "type": "Point", "coordinates": [ 149.913036917731262, -10.131180228032498 ] } },
{ "type": "Feature", "properties": { "DISTNAME": "Talasea District", "Area": 2275204174.461 }, "geometry": { "type": "Point", "coordinates": [ 149.96625625717121, -5.51454646756111 ] } },
{ "type": "Feature", "properties": { "DISTNAME": "Moresby North East", "Area": 81509283.206 }, "geometry": { "type": "Point", "coordinates": [ 147.237771938463652, -9.426390026598169 ] } },
{ "type": "Feature", "properties": { "DISTNAME": "Hiri-Koiari District", "Area": 5094814146.0139999 }, "geometry": { "type": "Point", "coordinates": [ 147.379977734868874, -9.216977426780012 ] } },
{ "type": "Feature", "properties": { "DISTNAME": "Moresby North West", "Area": 110109273.811 }, "geometry": { "type": "Point", "coordinates": [ 147.155277783915125, -9.409627660271047 ] } },
{ "type": "Feature", "properties": { "DISTNAME": "Moresby South", "Area": 74841484.878000006 }, "geometry": { "type": "Point", "coordinates": [ 147.221226140104875, -9.488478800081221 ] } }
]
}
